{
  "results": [
    {
      "fsq_id": "4cdbc628fc9737046d0ed105",
      "categories": [
        {
          "id": 13034,
          "name": "Café",
          "icon": {
            "prefix": "https://ss3.4sqi.net/img/categories_v2/food/cafe_",
            "suffix": ".png"
          }
        },
        {
          "id": 13035,
          "name": "Coffee Shop",
          "icon": {
            "prefix": "https://ss3.4sqi.net/img/categories_v2/food/coffeeshop_",
            "suffix": ".png"
          }
        },
        {
          "id": 13065,
          "name": "Restaurant",
          "icon": {
            "prefix": "https://ss3.4sqi.net/img/categories_v2/food/default_",
            "suffix": ".png"
          }
        }
      ],
      "chains": [],
      "distance": 606,
      "geocodes": {
        "main": {
          "latitude": 2.234124,
          "longitude": 102.282263
        }
      },
      "link": "/v3/places/4cdbc628fc9737046d0ed105",
      "location": {
        "address": "Lot G39, Ground Floor Jusco Melaka Shopping Centre, Lebuh",
        "country": "MY",
        "cross_street": "Lot G39, Ground Floor",
        "formatted_address": "Lot G39, Ground Floor Jusco Melaka Shopping Centre, Lebuh (Lot G39, Ground Floor), 75450 Kampung Ayer Keroh, Melaka",
        "locality": "Kampung Ayer Keroh",
        "postcode": "75450",
        "region": "Melaka"
      },
      "name": "The Coffee Bean Tea Leaf @ Jusco Melaka Shopping Centre",
      "related_places": {},
      "timezone": "Asia/Kuala_Lumpur"
    },
    {
      "fsq_id": "4e12d6237d8b4d5613e6caed",
      "categories": [
        {
          "id": 13034,
          "name": "Café",
          "icon": {
            "prefix": "https://ss3.4sqi.net/img/categories_v2/food/cafe_",
            "suffix": ".png"
          }
        }
      ],
      "chains": [],
      "distance": 658,
      "geocodes": {
        "main": {
          "latitude": 2.23703,
          "longitude": 102.279765
        }
      },
      "link": "/v3/places/4e12d6237d8b4d5613e6caed",
      "location": {
        "address": "Rumah Awan",
        "country": "MY",
        "cross_street": "",
        "formatted_address": "Rumah Awan, 75450 Melaka, Melaka",
        "locality": "Malacca",
        "postcode": "75450",
        "region": "Melaka"
      },
      "name": "Black Brown Blues Cafe",
      "related_places": {},
      "timezone": "Asia/Kuala_Lumpur"
    },
    {
      "fsq_id": "4d92bfa37b5ea143f5a0b8b8",
      "categories": [
        {
          "id": 13034,
          "name": "Café",
          "icon": {
            "prefix": "https://ss3.4sqi.net/img/categories_v2/food/cafe_",
            "suffix": ".png"
          }
        },
        {
          "id": 13035,
          "name": "Coffee Shop",
          "icon": {
            "prefix": "https://ss3.4sqi.net/img/categories_v2/food/coffeeshop_",
            "suffix": ".png"
          }
        },
        {
          "id": 13299,
          "name": "Malay Restaurant",
          "icon": {
            "prefix": "https://ss3.4sqi.net/img/categories_v2/food/malaysian_",
            "suffix": ".png"
          }
        }
      ],
      "chains": [],
      "distance": 3194,
      "geocodes": {
        "main": {
          "latitude": 2.216985,
          "longitude": 102.266368
        }
      },
      "link": "/v3/places/4d92bfa37b5ea143f5a0b8b8",
      "location": {
        "address": "378-C, Taman Sin Hoe, Bukit Baru",
        "country": "MY",
        "cross_street": "",
        "formatted_address": "378-C, Taman Sin Hoe, Bukit Baru, 75150 Melaka, Melaka",
        "locality": "Malacca",
        "postcode": "75150",
        "region": "Melaka"
      },
      "name": "Bess Kopitiam",
      "related_places": {},
      "timezone": "Asia/Kuala_Lumpur"
    },
    {
      "fsq_id": "4f6dca24e4b0e6e001edd57b",
      "categories": [
        {
          "id": 13034,
          "name": "Café",
          "icon": {
            "prefix": "https://ss3.4sqi.net/img/categories_v2/food/cafe_",
            "suffix": ".png"
          }
        }
      ],
      "chains": [],
      "distance": 663,
      "geocodes": {
        "main": {
          "latitude": 2.233352,
          "longitude": 102.282679
        }
      },
      "link": "/v3/places/4f6dca24e4b0e6e001edd57b",
      "location": {
        "address": "AEON Melaka Shopping Centre",
        "country": "MY",
        "cross_street": "",
        "formatted_address": "AEON Melaka Shopping Centre, 75450 Melaka, Melaka",
        "locality": "Malacca",
        "postcode": "75450",
        "region": "Melaka"
      },
      "name": "OldTown White Coffee",
      "related_places": {},
      "timezone": "Asia/Kuala_Lumpur"
    },
    {
      "fsq_id": "58b25d7d8ae3634733082669",
      "categories": [
        {
          "id": 13035,
          "name": "Coffee Shop",
          "icon": {
            "prefix": "https://ss3.4sqi.net/img/categories_v2/food/coffeeshop_",
            "suffix": ".png"
          }
        }
      ],
      "chains": [],
      "distance": 4035,
      "geocodes": {
        "main": {
          "latitude": 2.206117,
          "longitude": 102.269086
        }
      },
      "link": "/v3/places/58b25d7d8ae3634733082669",
      "location": {
        "address": "2, Jalan KPMB1, Kompleks Perniagaan Musai Bistari",
        "country": "MY",
        "cross_street": "",
        "formatted_address": "2, Jalan KPMB1, Kompleks Perniagaan Musai Bistari, 75400 Melaka, Melaka",
        "locality": "Malacca",
        "postcode": "75400",
        "region": "Melaka"
      },
      "name": "Sai Kee Kopi 434",
      "related_places": {},
      "timezone": "Asia/Kuala_Lumpur"
    },
    {
      "fsq_id": "4c5d3e3b6147be9a6d7c9109",
      "categories": [
        {
          "id": 13002,
          "name": "Bakery",
          "icon": {
            "prefix": "https://ss3.4sqi.net/img/categories_v2/food/bakery_",
            "suffix": ".png"
          }
        },
        {
          "id": 13034,
          "name": "Café",
          "icon": {
            "prefix": "https://ss3.4sqi.net/img/categories_v2/food/cafe_",
            "suffix": ".png"
          }
        },
        {
          "id": 13065,
          "name": "Restaurant",
          "icon": {
            "prefix": "https://ss3.4sqi.net/img/categories_v2/food/default_",
            "suffix": ".png"
          }
        }
      ],
      "chains": [],
      "distance": 617,
      "geocodes": {
        "main": {
          "latitude": 2.233782,
          "longitude": 102.282597
        }
      },
      "link": "/v3/places/4c5d3e3b6147be9a6d7c9109",
      "location": {
        "address": "Lot G38, Jusco Malacca Shopping Centre, Lebuh",
        "country": "MY",
        "cross_street": "Lebuh Ayer Keroh",
        "formatted_address": "Lot G38, Jusco Malacca Shopping Centre, Lebuh (Lebuh Ayer Keroh), 75450 Kampung Ayer Keroh, Melaka",
        "locality": "Kampung Ayer Keroh",
        "postcode": "75450",
        "region": "Melaka"
      },
      "name": "Secret Recipe @ Lebuh Ayer Keroh",
      "related_places": {},
      "timezone": "Asia/Kuala_Lumpur"
    }
  ],
  "context": {
    "geo_bounds": {
      "circle": {
        "center": {
          "latitude": 2.2386776,
          "longitude": 102.285377
        },
        "radius": 22000
      }
    }
  }
}